{
  "type": "FeatureCollection",
  "features": [
    {
      "type": "Feature",
      "properties": {
        "name": "Indira Gandhi International Airport",
        "city": "New Delhi",
        "type": "large_airport",
        "iata": "DEL",
        "gps": "VIDP"
      },
      "geometry": {
        "type": "Point",
        "coordinates": [
          77.09519,
          28.55563
        ]
      }
    },
    {
      "type": "Feature",
      "properties": {
        "name": "Chhatrapati Shivaji Maharaj International Airport",
        "city": "Mumbai",
        "type": "large_airport",
        "iata": "BOM",
        "gps": "VABB"
      },
      "geometry": {
        "type": "Point",
        "coordinates": [
          72.867897,
          19.088699
        ]
      }
    },
    {
      "type": "Feature",
      "properties": {
        "name": "Chennai International Airport",
        "city": "Chennai",
        "type": "large_airport",
        "iata": "MAA",
        "gps": "VOMM"
      },
      "geometry": {
        "type": "Point",
        "coordinates": [
          80.169296,
          12.990005
        ]
      }
    },
    {
      "type": "Feature",
      "properties": {
        "name": "Kempegowda International Airport Bengaluru",
        "city": "Bengaluru",
        "type": "large_airport",
        "iata": "BLR",
        "gps": "VOBL"
      },
      "geometry": {
        "type": "Point",
        "coordinates": [
          77.706299,
          13.1979
        ]
      }
    },
    {
      "type": "Feature",
      "properties": {
        "name": "Rajiv Gandhi International Airport",
        "city": "Hyderabad",
        "type": "large_airport",
        "iata": "HYD",
        "gps": "VOHS"
      },
      "geometry": {
        "type": "Point",
        "coordinates": [
          78.429855,
          17.231318
        ]
      }
    },
    {
      "type": "Feature",
      "properties": {
        "name": "Netaji Subhash Chandra Bose International Airport",
        "city": "Kolkata",
        "type": "large_airport",
        "iata": "CCU",
        "gps": "VECC"
      },
      "geometry": {
        "type": "Point",
        "coordinates": [
          88.44765,
          22.654012
        ]
      }
    },
    {
      "type": "Feature",
      "properties": {
        "name": "Goa Dabolim International Airport",
        "city": "Vasco da Gama",
        "type": "large_airport",
        "iata": "GOI",
        "gps": "VOGO"
      },
      "geometry": {
        "type": "Point",
        "coordinates": [
          73.833328,
          15.380062
        ]
      }
    },
    {
      "type": "Feature",
      "properties": {
        "name": "Cochin International Airport",
        "city": "Kochi",
        "type": "large_airport",
        "iata": "COK",
        "gps": "VOCI"
      },
      "geometry": {
        "type": "Point",
        "coordinates": [
          76.400838,
          10.151047
        ]
      }
    },
    {
      "type": "Feature",
      "properties": {
        "name": "Sardar Vallabh Patel International Airport",
        "city": "Ahmedabad",
        "type": "large_airport",
        "iata": "AMD",
        "gps": "VAAH"
      },
      "geometry": {
        "type": "Point",
        "coordinates": [
          72.634697,
          23.0772
        ]
      }
    },
    {
      "type": "Feature",
      "properties": {
        "name": "Thiruvananthapuram International Airport",
        "city": "Thiruvananthapuram",
        "type": "large_airport",
        "iata": "TRV",
        "gps": "VOTV"
      },
      "geometry": {
        "type": "Point",
        "coordinates": [
          76.920029,
          8.481889
        ]
      }
    },
    {
      "type": "Feature",
      "properties": {
        "name": "Jaipur International Airport",
        "city": "Jaipur",
        "type": "large_airport",
        "iata": "JAI",
        "gps": "VIJP"
      },
      "geometry": {
        "type": "Point",
        "coordinates": [
          75.812202,
          26.8242
        ]
      }
    },
    {
      "type": "Feature",
      "properties": {
        "name": "Pune International Airport",
        "city": "Pune",
        "type": "large_airport",
        "iata": "PNQ",
        "gps": "VAPO"
      },
      "geometry": {
        "type": "Point",
        "coordinates": [
          73.919701,
          18.5821
        ]
      }
    },
    {
      "type": "Feature",
      "properties": {
        "name": "Lal Bahadur Shastri International Airport",
        "city": "Varanasi",
        "type": "large_airport",
        "iata": "VNS",
        "gps": "VEBN"
      },
      "geometry": {
        "type": "Point",
        "coordinates": [
          82.862549,
          25.452171
        ]
      }
    },
    {
      "type": "Feature",
      "properties": {
        "name": "HAL Airport",
        "city": "Bangalore",
        "type": "medium_airport",
        "iata": "",
        "gps": "VOBG"
      },
      "geometry": {
        "type": "Point",
        "coordinates": [
          77.668198,
          12.95
        ]
      }
    },
    {
      "type": "Feature",
      "properties": {
        "name": "Sri Guru Ram Das Ji International Airport",
        "city": "Amritsar",
        "type": "large_airport",
        "iata": "ATQ",
        "gps": "VIAR"
      },
      "geometry": {
        "type": "Point",
        "coordinates": [
          74.797302,
          31.7096
        ]
      }
    },
    {
      "type": "Feature",
      "properties": {
        "name": "Vadodara International Airport",
        "city": "Vadodara",
        "type": "large_airport",
        "iata": "BDQ",
        "gps": "VABO"
      },
      "geometry": {
        "type": "Point",
        "coordinates": [
          73.226303,
          22.336201
        ]
      }
    },
    {
      "type": "Feature",
      "properties": {
        "name": "Biju Patnaik International Airport",
        "city": "Bhubaneswar",
        "type": "large_airport",
        "iata": "BBI",
        "gps": "VEBS"
      },
      "geometry": {
        "type": "Point",
        "coordinates": [
          85.814747,
          20.251021
        ]
      }
    },
    {
      "type": "Feature",
      "properties": {
        "name": "Chaudhary Charan Singh International Airport",
        "city": "Lucknow",
        "type": "large_airport",
        "iata": "LKO",
        "gps": "VILK"
      },
      "geometry": {
        "type": "Point",
        "coordinates": [
          80.889297,
          26.760599
        ]
      }
    },
    {
      "type": "Feature",
      "properties": {
        "name": "Mangaluru International Airport",
        "city": "Mangaluru",
        "type": "large_airport",
        "iata": "IXE",
        "gps": "VOML"
      },
      "geometry": {
        "type": "Point",
        "coordinates": [
          74.886812,
          12.95471
        ]
      }
    },
    {
      "type": "Feature",
      "properties": {
        "name": "Visakhapatnam International Airport",
        "city": "Visakhapatnam",
        "type": "large_airport",
        "iata": "VTZ",
        "gps": "VOVZ"
      },
      "geometry": {
        "type": "Point",
        "coordinates": [
          83.227729,
          17.723506
        ]
      }
    },
    {
      "type": "Feature",
      "properties": {
        "name": "Calicut International Airport",
        "city": "Calicut",
        "type": "large_airport",
        "iata": "CCJ",
        "gps": "VOCL"
      },
      "geometry": {
        "type": "Point",
        "coordinates": [
          75.955152,
          11.135996
        ]
      }
    },
    {
      "type": "Feature",
      "properties": {
        "name": "Coimbatore International Airport",
        "city": "Coimbatore",
        "type": "large_airport",
        "iata": "CJB",
        "gps": "VOCB"
      },
      "geometry": {
        "type": "Point",
        "coordinates": [
          77.043404,
          11.03
        ]
      }
    },
    {
      "type": "Feature",
      "properties": {
        "name": "Veer Savarkar International Airport / INS Utkrosh",
        "city": "Port Blair",
        "type": "large_airport",
        "iata": "IXZ",
        "gps": "VOPB"
      },
      "geometry": {
        "type": "Point",
        "coordinates": [
          92.72902,
          11.640194
        ]
      }
    },
    {
      "type": "Feature",
      "properties": {
        "name": "Jodhpur Airport",
        "city": "Jodhpur",
        "type": "medium_airport",
        "iata": "JDH",
        "gps": "VIJO"
      },
      "geometry": {
        "type": "Point",
        "coordinates": [
          73.04889678955078,
          26.251100540161133
        ]
      }
    },
    {
      "type": "Feature",
      "properties": {
        "name": "Begumpet Airport",
        "city": "Hyderabad",
        "type": "medium_airport",
        "iata": "BPM",
        "gps": "VOHY"
      },
      "geometry": {
        "type": "Point",
        "coordinates": [
          78.467598,
          17.4531
        ]
      }
    },
    {
      "type": "Feature",
      "properties": {
        "name": "Shaheed Bhagat Singh International Airport",
        "city": "Chandigarh",
        "type": "large_airport",
        "iata": "IXC",
        "gps": "VICG"
      },
      "geometry": {
        "type": "Point",
        "coordinates": [
          76.788498,
          30.6735
        ]
      }
    },
    {
      "type": "Feature",
      "properties": {
        "name": "Lokpriya Gopinath Bordoloi International Airport",
        "city": "Guwahati",
        "type": "large_airport",
        "iata": "GAU",
        "gps": "VEGT"
      },
      "geometry": {
        "type": "Point",
        "coordinates": [
          91.585226,
          26.106654
        ]
      }
    },
    {
      "type": "Feature",
      "properties": {
        "name": "Bagdogra Airport",
        "city": "Siliguri",
        "type": "large_airport",
        "iata": "IXB",
        "gps": "VEBD"
      },
      "geometry": {
        "type": "Point",
        "coordinates": [
          88.328598,
          26.6812
        ]
      }
    },
    {
      "type": "Feature",
      "properties": {
        "name": "Leh Kushok Bakula Rimpochee Airport",
        "city": "Leh",
        "type": "medium_airport",
        "iata": "IXL",
        "gps": "VILH"
      },
      "geometry": {
        "type": "Point",
        "coordinates": [
          77.546501,
          34.135899
        ]
      }
    },
    {
      "type": "Feature",
      "properties": {
        "name": "Maharana Pratap Airport",
        "city": "Udaipur",
        "type": "medium_airport",
        "iata": "UDR",
        "gps": "VAUD"
      },
      "geometry": {
        "type": "Point",
        "coordinates": [
          73.89610290530001,
          24.617700576799997
        ]
      }
    },
    {
      "type": "Feature",
      "properties": {
        "name": "Devi Ahilya Bai Holkar International Airport",
        "city": "Indore",
        "type": "large_airport",
        "iata": "IDR",
        "gps": "VAID"
      },
      "geometry": {
        "type": "Point",
        "coordinates": [
          75.80051,
          22.721404
        ]
      }
    },
    {
      "type": "Feature",
      "properties": {
        "name": "Sheikh ul Alam International Airport",
        "city": "Srinagar",
        "type": "large_airport",
        "iata": "SXR",
        "gps": "VISR"
      },
      "geometry": {
        "type": "Point",
        "coordinates": [
          74.7742,
          33.987099
        ]
      }
    },
    {
      "type": "Feature",
      "properties": {
        "name": "Surat International Airport",
        "city": "Surat",
        "type": "large_airport",
        "iata": "STV",
        "gps": "VASU"
      },
      "geometry": {
        "type": "Point",
        "coordinates": [
          72.743251,
          21.115531
        ]
      }
    },
    {
      "type": "Feature",
      "properties": {
        "name": "Madurai Airport",
        "city": "Madurai",
        "type": "medium_airport",
        "iata": "IXM",
        "gps": "VOMD"
      },
      "geometry": {
        "type": "Point",
        "coordinates": [
          78.09339904790001,
          9.83450984955
        ]
      }
    },
    {
      "type": "Feature",
      "properties": {
        "name": "Jay Prakash Narayan Airport",
        "city": "Patna",
        "type": "medium_airport",
        "iata": "PAT",
        "gps": "VEPT"
      },
      "geometry": {
        "type": "Point",
        "coordinates": [
          85.087997,
          25.591299
        ]
      }
    },
    {
      "type": "Feature",
      "properties": {
        "name": "Dr. Babasaheb Ambedkar International Airport",
        "city": "Nagpur",
        "type": "large_airport",
        "iata": "NAG",
        "gps": "VANP"
      },
      "geometry": {
        "type": "Point",
        "coordinates": [
          79.047203,
          21.092199
        ]
      }
    },
    {
      "type": "Feature",
      "properties": {
        "name": "Raja Bhoj International Airport",
        "city": "Bhopal",
        "type": "large_airport",
        "iata": "BHO",
        "gps": "VABP"
      },
      "geometry": {
        "type": "Point",
        "coordinates": [
          77.337402,
          23.2875
        ]
      }
    },
    {
      "type": "Feature",
      "properties": {
        "name": "Tirupati International Airport",
        "city": "Tirupati",
        "type": "large_airport",
        "iata": "TIR",
        "gps": "VOTP"
      },
      "geometry": {
        "type": "Point",
        "coordinates": [
          79.539869,
          13.631988
        ]
      }
    },
    {
      "type": "Feature",
      "properties": {
        "name": "Vijayawada International Airport",
        "city": "Vijayawada",
        "type": "large_airport",
        "iata": "VGA",
        "gps": "VOBZ"
      },
      "geometry": {
        "type": "Point",
        "coordinates": [
          80.804888,
          16.530011
        ]
      }
    },
    {
      "type": "Feature",
      "properties": {
        "name": "Bhuj Airport",
        "city": "Bhuj",
        "type": "medium_airport",
        "iata": "BHJ",
        "gps": "VABJ"
      },
      "geometry": {
        "type": "Point",
        "coordinates": [
          69.6701965332,
          23.2877998352
        ]
      }
    },
    {
      "type": "Feature",
      "properties": {
        "name": "Juhu Aerodrome",
        "city": "Mumbai",
        "type": "small_airport",
        "iata": "",
        "gps": "VAJJ"
      },
      "geometry": {
        "type": "Point",
        "coordinates": [
          72.83419799804688,
          19.098100662231445
        ]
      }
    },
    {
      "type": "Feature",
      "properties": {
        "name": "Bir Tikendrajit International Airport",
        "city": "Imphal",
        "type": "large_airport",
        "iata": "IMF",
        "gps": "VEIM"
      },
      "geometry": {
        "type": "Point",
        "coordinates": [
          93.896698,
          24.76
        ]
      }
    },
    {
      "type": "Feature",
      "properties": {
        "name": "Kannur International Airport",
        "city": "Kannur",
        "type": "large_airport",
        "iata": "CNN",
        "gps": "VOKN"
      },
      "geometry": {
        "type": "Point",
        "coordinates": [
          75.544979,
          11.916343
        ]
      }
    },
    {
      "type": "Feature",
      "properties": {
        "name": "Aurangabad Airport",
        "city": "Aurangabad",
        "type": "medium_airport",
        "iata": "IXU",
        "gps": "VAAU"
      },
      "geometry": {
        "type": "Point",
        "coordinates": [
          75.396312,
          19.862875
        ]
      }
    },
    {
      "type": "Feature",
      "properties": {
        "name": "Jammu Airport",
        "city": "Jammu",
        "type": "medium_airport",
        "iata": "IXJ",
        "gps": "VIJU"
      },
      "geometry": {
        "type": "Point",
        "coordinates": [
          74.838152,
          32.688849
        ]
      }
    },
    {
      "type": "Feature",
      "properties": {
        "name": "Rajkot Airport",
        "city": "Rajkot",
        "type": "medium_airport",
        "iata": "RAJ",
        "gps": "VARK"
      },
      "geometry": {
        "type": "Point",
        "coordinates": [
          70.779503,
          22.3092
        ]
      }
    },
    {
      "type": "Feature",
      "properties": {
        "name": "Birsa Munda Airport",
        "city": "Ranchi",
        "type": "medium_airport",
        "iata": "IXR",
        "gps": "VERC"
      },
      "geometry": {
        "type": "Point",
        "coordinates": [
          85.3217010498,
          23.314300537100003
        ]
      }
    },
    {
      "type": "Feature",
      "properties": {
        "name": "Agra Airport / Agra Air Force Station",
        "city": "Agra",
        "type": "medium_airport",
        "iata": "AGR",
        "gps": "VIAG"
      },
      "geometry": {
        "type": "Point",
        "coordinates": [
          77.961025,
          27.157975
        ]
      }
    },
    {
      "type": "Feature",
      "properties": {
        "name": "Kullu Manali Airport",
        "city": "Bhuntar",
        "type": "medium_airport",
        "iata": "KUU",
        "gps": "VIBR"
      },
      "geometry": {
        "type": "Point",
        "coordinates": [
          77.154404,
          31.876699
        ]
      }
    },
    {
      "type": "Feature",
      "properties": {
        "name": "Dibrugarh Airport",
        "city": "Dibrugarh",
        "type": "medium_airport",
        "iata": "DIB",
        "gps": "VEMN"
      },
      "geometry": {
        "type": "Point",
        "coordinates": [
          95.0168991089,
          27.4839000702
        ]
      }
    },
    {
      "type": "Feature",
      "properties": {
        "name": "Khajuraho Airport",
        "city": "Khajuraho",
        "type": "medium_airport",
        "iata": "HJR",
        "gps": "VEKO"
      },
      "geometry": {
        "type": "Point",
        "coordinates": [
          79.918602,
          24.8172
        ]
      }
    },
    {
      "type": "Feature",
      "properties": {
        "name": "Swami Vivekananda Airport",
        "city": "Raipur",
        "type": "medium_airport",
        "iata": "RPR",
        "gps": "VERP"
      },
      "geometry": {
        "type": "Point",
        "coordinates": [
          81.7388,
          21.180401
        ]
      }
    },
    {
      "type": "Feature",
      "properties": {
        "name": "Nashik International Airport",
        "city": "Nashik",
        "type": "large_airport",
        "iata": "ISK",
        "gps": "VAOZ"
      },
      "geometry": {
        "type": "Point",
        "coordinates": [
          73.912903,
          20.119101
        ]
      }
    },
    {
      "type": "Feature",
      "properties": {
        "name": "Agartala - Maharaja Bir Bikram Airport",
        "city": "Agartala",
        "type": "medium_airport",
        "iata": "IXA",
        "gps": "VEAT"
      },
      "geometry": {
        "type": "Point",
        "coordinates": [
          91.240402,
          23.886999
        ]
      }
    },
    {
      "type": "Feature",
      "properties": {
        "name": "Bhavnagar Airport",
        "city": "Bhavnagar",
        "type": "medium_airport",
        "iata": "BHU",
        "gps": "VABV"
      },
      "geometry": {
        "type": "Point",
        "coordinates": [
          72.1852035522,
          21.752199173
        ]
      }
    },
    {
      "type": "Feature",
      "properties": {
        "name": "Jabalpur Airport",
        "city": "Jabalpur",
        "type": "medium_airport",
        "iata": "JLR",
        "gps": "VAJB"
      },
      "geometry": {
        "type": "Point",
        "coordinates": [
          80.052002,
          23.177799
        ]
      }
    },
    {
      "type": "Feature",
      "properties": {
        "name": "Jorhat Airport",
        "city": "Jorhat",
        "type": "medium_airport",
        "iata": "JRH",
        "gps": "VEJT"
      },
      "geometry": {
        "type": "Point",
        "coordinates": [
          94.175416,
          26.730456
        ]
      }
    },
    {
      "type": "Feature",
      "properties": {
        "name": "Rajahmundry Airport",
        "city": "Madhurapudi",
        "type": "medium_airport",
        "iata": "RJA",
        "gps": "VORY"
      },
      "geometry": {
        "type": "Point",
        "coordinates": [
          81.813204,
          17.105799
        ]
      }
    },
    {
      "type": "Feature",
      "properties": {
        "name": "Shimla Airport",
        "city": "Jubbarhatti",
        "type": "small_airport",
        "iata": "SLV",
        "gps": "VISM"
      },
      "geometry": {
        "type": "Point",
        "coordinates": [
          77.068001,
          31.0818
        ]
      }
    },
    {
      "type": "Feature",
      "properties": {
        "name": "Tiruchirappalli International Airport",
        "city": "Tiruchirappalli",
        "type": "large_airport",
        "iata": "TRZ",
        "gps": "VOTR"
      },
      "geometry": {
        "type": "Point",
        "coordinates": [
          78.717741,
          10.762915
        ]
      }
    },
    {
      "type": "Feature",
      "properties": {
        "name": "Dehradun Jolly Grant Airport",
        "city": "Dehradun (Jauligrant)",
        "type": "medium_airport",
        "iata": "DED",
        "gps": "VIDN"
      },
      "geometry": {
        "type": "Point",
        "coordinates": [
          78.176651,
          30.189243
        ]
      }
    },
    {
      "type": "Feature",
      "properties": {
        "name": "Jamnagar Airport",
        "city": "Jamnagar",
        "type": "medium_airport",
        "iata": "JGA",
        "gps": "VAJM"
      },
      "geometry": {
        "type": "Point",
        "coordinates": [
          70.01260375976562,
          22.465499877929688
        ]
      }
    },
    {
      "type": "Feature",
      "properties": {
        "name": "Silchar Airport",
        "city": "Silchar",
        "type": "medium_airport",
        "iata": "IXS",
        "gps": "VEKU"
      },
      "geometry": {
        "type": "Point",
        "coordinates": [
          92.97869873050001,
          24.9129009247
        ]
      }
    },
    {
      "type": "Feature",
      "properties": {
        "name": "Agatti Airport",
        "city": "Agatti",
        "type": "medium_airport",
        "iata": "AGX",
        "gps": "VOAT"
      },
      "geometry": {
        "type": "Point",
        "coordinates": [
          72.176003,
          10.8237
        ]
      }
    },
    {
      "type": "Feature",
      "properties": {
        "name": "Lengpui Airport",
        "city": "Aizawl (Lengpui)",
        "type": "medium_airport",
        "iata": "AJL",
        "gps": "VELP"
      },
      "geometry": {
        "type": "Point",
        "coordinates": [
          92.619698,
          23.840599
        ]
      }
    },
    {
      "type": "Feature",
      "properties": {
        "name": "Prayagraj Airport",
        "city": "Allahabad",
        "type": "medium_airport",
        "iata": "IXD",
        "gps": "VEAB"
      },
      "geometry": {
        "type": "Point",
        "coordinates": [
          81.733902,
          25.4401
        ]
      }
    },
    {
      "type": "Feature",
      "properties": {
        "name": "Darbhanga Airport",
        "city": "Darbhanga",
        "type": "medium_airport",
        "iata": "DBR",
        "gps": "VEDH"
      },
      "geometry": {
        "type": "Point",
        "coordinates": [
          85.916901,
          26.192801
        ]
      }
    },
    {
      "type": "Feature",
      "properties": {
        "name": "Gondia Airport",
        "city": "Gondia",
        "type": "medium_airport",
        "iata": "GDB",
        "gps": "VAGD"
      },
      "geometry": {
        "type": "Point",
        "coordinates": [
          80.290347,
          21.526817
        ]
      }
    },
    {
      "type": "Feature",
      "properties": {
        "name": "Kanpur Airport",
        "city": "Kanpur",
        "type": "medium_airport",
        "iata": "KNU",
        "gps": "VEKA"
      },
      "geometry": {
        "type": "Point",
        "coordinates": [
          80.410103,
          26.404301
        ]
      }
    },
    {
      "type": "Feature",
      "properties": {
        "name": "Keshod Airport",
        "city": "Keshod",
        "type": "medium_airport",
        "iata": "IXK",
        "gps": "VAKS"
      },
      "geometry": {
        "type": "Point",
        "coordinates": [
          70.270401,
          21.317101
        ]
      }
    },
    {
      "type": "Feature",
      "properties": {
        "name": "Ambala Air Force Station",
        "city": "Ambala",
        "type": "medium_airport",
        "iata": "",
        "gps": "VIAM"
      },
      "geometry": {
        "type": "Point",
        "coordinates": [
          76.816704,
          30.368099
        ]
      }
    },
    {
      "type": "Feature",
      "properties": {
        "name": "Sri Sathya Sai Airport",
        "city": "Puttaparthi",
        "type": "medium_airport",
        "iata": "PUT",
        "gps": "VOPN"
      },
      "geometry": {
        "type": "Point",
        "coordinates": [
          77.7910995483,
          14.1492996216
        ]
      }
    },
    {
      "type": "Feature",
      "properties": {
        "name": "Deoghar Airport",
        "city": "Deoghar",
        "type": "small_airport",
        "iata": "DGH",
        "gps": "VEDO"
      },
      "geometry": {
        "type": "Point",
        "coordinates": [
          86.704955,
          24.446842
        ]
      }
    },
    {
      "type": "Feature",
      "properties": {
        "name": "Kharagpur Airport / Kalaikunda Air Force Station",
        "city": "Doarkhol",
        "type": "small_airport",
        "iata": "",
        "gps": "VEDX"
      },
      "geometry": {
        "type": "Point",
        "coordinates": [
          87.2145,
          22.3395
        ]
      }
    },
    {
      "type": "Feature",
      "properties": {
        "name": "Rajkot International Airport",
        "city": "Rajkot",
        "type": "large_airport",
        "iata": "HSR",
        "gps": "VAHS"
      },
      "geometry": {
        "type": "Point",
        "coordinates": [
          71.039391,
          22.378824
        ]
      }
    },
    {
      "type": "Feature",
      "properties": {
        "name": "Tezpur Airport",
        "city": "",
        "type": "medium_airport",
        "iata": "TEZ",
        "gps": "VETZ"
      },
      "geometry": {
        "type": "Point",
        "coordinates": [
          92.78469848632812,
          26.7091007232666
        ]
      }
    },
    {
      "type": "Feature",
      "properties": {
        "name": "Belagavi Airport",
        "city": "Belgaum",
        "type": "medium_airport",
        "iata": "IXG",
        "gps": "VOBM"
      },
      "geometry": {
        "type": "Point",
        "coordinates": [
          74.618301,
          15.8593
        ]
      }
    },
    {
      "type": "Feature",
      "properties": {
        "name": "Gaya Airport",
        "city": "Gaya",
        "type": "medium_airport",
        "iata": "GAY",
        "gps": "VEGY"
      },
      "geometry": {
        "type": "Point",
        "coordinates": [
          84.951202,
          24.744301
        ]
      }
    },
    {
      "type": "Feature",
      "properties": {
        "name": "Gwalior Airport",
        "city": "Gwalior",
        "type": "medium_airport",
        "iata": "GWL",
        "gps": "VIGR"
      },
      "geometry": {
        "type": "Point",
        "coordinates": [
          78.22779846191406,
          26.29330062866211
        ]
      }
    },
    {
      "type": "Feature",
      "properties": {
        "name": "Porbandar Airport",
        "city": "Porbandar",
        "type": "medium_airport",
        "iata": "PBD",
        "gps": "VAPR"
      },
      "geometry": {
        "type": "Point",
        "coordinates": [
          69.656405,
          21.649524
        ]
      }
    },
    {
      "type": "Feature",
      "properties": {
        "name": "Kazi Nazrul Islam Airport",
        "city": "Durgapur",
        "type": "medium_airport",
        "iata": "RDP",
        "gps": "VEDG"
      },
      "geometry": {
        "type": "Point",
        "coordinates": [
          87.243,
          23.6225
        ]
      }
    },
    {
      "type": "Feature",
      "properties": {
        "name": "Kandla Airport",
        "city": "Kandla",
        "type": "medium_airport",
        "iata": "IXY",
        "gps": "VAKE"
      },
      "geometry": {
        "type": "Point",
        "coordinates": [
          70.100304,
          23.1127
        ]
      }
    },
    {
      "type": "Feature",
      "properties": {
        "name": "Mysore Airport",
        "city": "Mysore",
        "type": "medium_airport",
        "iata": "MYQ",
        "gps": "VOMY"
      },
      "geometry": {
        "type": "Point",
        "coordinates": [
          76.653683,
          12.229751
        ]
      }
    },
    {
      "type": "Feature",
      "properties": {
        "name": "Sonari Airport",
        "city": "Jamshedpur",
        "type": "medium_airport",
        "iata": "IXW",
        "gps": "VEJS"
      },
      "geometry": {
        "type": "Point",
        "coordinates": [
          86.168981,
          22.813706
        ]
      }
    },
    {
      "type": "Feature",
      "properties": {
        "name": "Diu Airport",
        "city": "Diu",
        "type": "small_airport",
        "iata": "DIU",
        "gps": "VADU"
      },
      "geometry": {
        "type": "Point",
        "coordinates": [
          70.921855,
          20.714185
        ]
      }
    },
    {
      "type": "Feature",
      "properties": {
        "name": "INS Garuda / Willingdon Island Naval Air Station",
        "city": "Kochi",
        "type": "small_airport",
        "iata": "",
        "gps": "VOCC"
      },
      "geometry": {
        "type": "Point",
        "coordinates": [
          76.271947,
          9.946064
        ]
      }
    },
    {
      "type": "Feature",
      "properties": {
        "name": "Baramati Airport",
        "city": "Pune",
        "type": "small_airport",
        "iata": "",
        "gps": ""
      },
      "geometry": {
        "type": "Point",
        "coordinates": [
          74.590833,
          18.226944
        ]
      }
    },
    {
      "type": "Feature",
      "properties": {
        "name": "Bokaro Airport",
        "city": "",
        "type": "small_airport",
        "iata": "",
        "gps": "VEBK"
      },
      "geometry": {
        "type": "Point",
        "coordinates": [
          86.148903,
          23.643499
        ]
      }
    },
    {
      "type": "Feature",
      "properties": {
        "name": "Bhagalpur Airport",
        "city": "Bhagalpur",
        "type": "small_airport",
        "iata": "",
        "gps": ""
      },
      "geometry": {
        "type": "Point",
        "coordinates": [
          87.011976,
          25.249535
        ]
      }
    },
    {
      "type": "Feature",
      "properties": {
        "name": "Bhiwani Airport",
        "city": "Bhiwani",
        "type": "small_airport",
        "iata": "",
        "gps": "VIBW"
      },
      "geometry": {
        "type": "Point",
        "coordinates": [
          76.1791,
          28.837
        ]
      }
    },
    {
      "type": "Feature",
      "properties": {
        "name": "Harihar Airport",
        "city": "Harihar",
        "type": "small_airport",
        "iata": "",
        "gps": "VO52"
      },
      "geometry": {
        "type": "Point",
        "coordinates": [
          75.786879,
          14.534533
        ]
      }
    },
    {
      "type": "Feature",
      "properties": {
        "name": "Hakimpet Airport",
        "city": "Secunderabad",
        "type": "small_airport",
        "iata": "",
        "gps": "VOHK"
      },
      "geometry": {
        "type": "Point",
        "coordinates": [
          78.524902,
          17.553499
        ]
      }
    },
    {
      "type": "Feature",
      "properties": {
        "name": "Maharaja Agrasen International Airport",
        "city": "Hisar",
        "type": "large_airport",
        "iata": "HSS",
        "gps": "VIHR"
      },
      "geometry": {
        "type": "Point",
        "coordinates": [
          75.74142,
          29.186065
        ]
      }
    },
    {
      "type": "Feature",
      "properties": {
        "name": "Shirdi International Airport",
        "city": "Kakadi",
        "type": "large_airport",
        "iata": "SAG",
        "gps": "VASD"
      },
      "geometry": {
        "type": "Point",
        "coordinates": [
          74.373655,
          19.689211
        ]
      }
    },
    {
      "type": "Feature",
      "properties": {
        "name": "Manohar International Airport",
        "city": "Mopa",
        "type": "large_airport",
        "iata": "GOX",
        "gps": "VOGA"
      },
      "geometry": {
        "type": "Point",
        "coordinates": [
          73.860625,
          15.744257
        ]
      }
    },
    {
      "type": "Feature",
      "properties": {
        "name": "Kolhapur Airport",
        "city": "Kolhapur",
        "type": "medium_airport",
        "iata": "KLH",
        "gps": "VAKP"
      },
      "geometry": {
        "type": "Point",
        "coordinates": [
          74.289398,
          16.6647
        ]
      }
    },
    {
      "type": "Feature",
      "properties": {
        "name": "Shillong Airport",
        "city": "Shillong",
        "type": "medium_airport",
        "iata": "SHL",
        "gps": "VEBI"
      },
      "geometry": {
        "type": "Point",
        "coordinates": [
          91.97869873046875,
          25.70359992980957
        ]
      }
    },
    {
      "type": "Feature",
      "properties": {
        "name": "Jaisalmer Airport",
        "city": "",
        "type": "medium_airport",
        "iata": "JSA",
        "gps": "VIJR"
      },
      "geometry": {
        "type": "Point",
        "coordinates": [
          70.864998,
          26.8887
        ]
      }
    },
    {
      "type": "Feature",
      "properties": {
        "name": "Kishangarh Airport Ajmer",
        "city": "Ajmer (Kishangarh)",
        "type": "medium_airport",
        "iata": "KQH",
        "gps": "VIKG"
      },
      "geometry": {
        "type": "Point",
        "coordinates": [
          74.812956,
          26.591007
        ]
      }
    },
    {
      "type": "Feature",
      "properties": {
        "name": "Bilaspur Airport",
        "city": "Bilaspur",
        "type": "medium_airport",
        "iata": "PAB",
        "gps": "VEBU"
      },
      "geometry": {
        "type": "Point",
        "coordinates": [
          82.111,
          21.9884
        ]
      }
    },
    {
      "type": "Feature",
      "properties": {
        "name": "Kadapa Airport",
        "city": "Kadapa",
        "type": "medium_airport",
        "iata": "CDP",
        "gps": "VOCP"
      },
      "geometry": {
        "type": "Point",
        "coordinates": [
          78.769183,
          14.513154
        ]
      }
    },
    {
      "type": "Feature",
      "properties": {
        "name": "Kangra Airport",
        "city": "Kangra",
        "type": "medium_airport",
        "iata": "DHM",
        "gps": "VIGG"
      },
      "geometry": {
        "type": "Point",
        "coordinates": [
          76.263018,
          32.164902
        ]
      }
    },
    {
      "type": "Feature",
      "properties": {
        "name": "Moradabad Airport",
        "city": "Moradabad",
        "type": "medium_airport",
        "iata": "MZS",
        "gps": "VIMB"
      },
      "geometry": {
        "type": "Point",
        "coordinates": [
          78.92187,
          28.81746
        ]
      }
    },
    {
      "type": "Feature",
      "properties": {
        "name": "Pathankot Airport",
        "city": "Pathankot",
        "type": "medium_airport",
        "iata": "IXP",
        "gps": "VIPK"
      },
      "geometry": {
        "type": "Point",
        "coordinates": [
          75.634444,
          32.233611
        ]
      }
    },
    {
      "type": "Feature",
      "properties": {
        "name": "Rewa Airport, Chorhata, REWA",
        "city": "Rewa",
        "type": "medium_airport",
        "iata": "REW",
        "gps": "VA1G"
      },
      "geometry": {
        "type": "Point",
        "coordinates": [
          81.220299,
          24.503401
        ]
      }
    },
    {
      "type": "Feature",
      "properties": {
        "name": "Dhanbad Airport",
        "city": "",
        "type": "medium_airport",
        "iata": "DBD",
        "gps": "VEDB"
      },
      "geometry": {
        "type": "Point",
        "coordinates": [
          86.425301,
          23.834
        ]
      }
    },
    {
      "type": "Feature",
      "properties": {
        "name": "Sirsa Air Force Station",
        "city": "",
        "type": "medium_airport",
        "iata": "",
        "gps": "VISA"
      },
      "geometry": {
        "type": "Point",
        "coordinates": [
          75.006104,
          29.5606
        ]
      }
    },
    {
      "type": "Feature",
      "properties": {
        "name": "Bhatinda Air Force Station",
        "city": "",
        "type": "medium_airport",
        "iata": "BUP",
        "gps": "VIBT"
      },
      "geometry": {
        "type": "Point",
        "coordinates": [
          74.755798,
          30.2701
        ]
      }
    },
    {
      "type": "Feature",
      "properties": {
        "name": "Panagarh Air Force Station",
        "city": "",
        "type": "medium_airport",
        "iata": "",
        "gps": "VEPH"
      },
      "geometry": {
        "type": "Point",
        "coordinates": [
          87.4274978638,
          23.474300384499998
        ]
      }
    },
    {
      "type": "Feature",
      "properties": {
        "name": "Bellary Airport",
        "city": "Bellary",
        "type": "medium_airport",
        "iata": "BEP",
        "gps": "VOBI"
      },
      "geometry": {
        "type": "Point",
        "coordinates": [
          76.88279724121094,
          15.162799835205078
        ]
      }
    },
    {
      "type": "Feature",
      "properties": {
        "name": "Bidar Airport / Bidar Air Force Station",
        "city": "Bidar",
        "type": "medium_airport",
        "iata": "IXX",
        "gps": "VOBR"
      },
      "geometry": {
        "type": "Point",
        "coordinates": [
          77.487099,
          17.9081
        ]
      }
    },
    {
      "type": "Feature",
      "properties": {
        "name": "Dundigul Air Force Academy",
        "city": "Hyderabad",
        "type": "medium_airport",
        "iata": "",
        "gps": "VODG"
      },
      "geometry": {
        "type": "Point",
        "coordinates": [
          78.4033966064,
          17.627199173
        ]
      }
    },
    {
      "type": "Feature",
      "properties": {
        "name": "Kailashahar Airport",
        "city": "Kailashahar",
        "type": "medium_airport",
        "iata": "IXH",
        "gps": "VEKR"
      },
      "geometry": {
        "type": "Point",
        "coordinates": [
          92.00768,
          24.308657
        ]
      }
    },
    {
      "type": "Feature",
      "properties": {
        "name": "Kota Airport",
        "city": "Kota",
        "type": "medium_airport",
        "iata": "KTU",
        "gps": "VIKO"
      },
      "geometry": {
        "type": "Point",
        "coordinates": [
          75.84559631350001,
          25.160200119
        ]
      }
    },
    {
      "type": "Feature",
      "properties": {
        "name": "Safdarjung Airport",
        "city": "New Delhi",
        "type": "medium_airport",
        "iata": "",
        "gps": "VIDD"
      },
      "geometry": {
        "type": "Point",
        "coordinates": [
          77.203563,
          28.585453
        ]
      }
    },
    {
      "type": "Feature",
      "properties": {
        "name": "Rourkela Airport",
        "city": "Rourkela",
        "type": "medium_airport",
        "iata": "RRK",
        "gps": "VERK"
      },
      "geometry": {
        "type": "Point",
        "coordinates": [
          84.815193,
          22.256571
        ]
      }
    },
    {
      "type": "Feature",
      "properties": {
        "name": "Udhampur Air Force Station",
        "city": "Udhampur",
        "type": "medium_airport",
        "iata": "",
        "gps": "VIUX"
      },
      "geometry": {
        "type": "Point",
        "coordinates": [
          75.155709,
          32.902152
        ]
      }
    },
    {
      "type": "Feature",
      "properties": {
        "name": "Tuirial Airfield",
        "city": "Aizawl",
        "type": "small_airport",
        "iata": "",
        "gps": "VEAZ"
      },
      "geometry": {
        "type": "Point",
        "coordinates": [
          92.802846,
          23.746214
        ]
      }
    },
    {
      "type": "Feature",
      "properties": {
        "name": "Gandhinagar Airfield",
        "city": "Nashik",
        "type": "small_airport",
        "iata": "",
        "gps": "VANR"
      },
      "geometry": {
        "type": "Point",
        "coordinates": [
          73.807602,
          19.963699
        ]
      }
    },
    {
      "type": "Feature",
      "properties": {
        "name": "Baljek Airport",
        "city": "",
        "type": "small_airport",
        "iata": "",
        "gps": ""
      },
      "geometry": {
        "type": "Point",
        "coordinates": [
          90.34503936767578,
          25.661487579345703
        ]
      }
    },
    {
      "type": "Feature",
      "properties": {
        "name": "Jharsuguda Airport",
        "city": "",
        "type": "small_airport",
        "iata": "JRG",
        "gps": "VEJH"
      },
      "geometry": {
        "type": "Point",
        "coordinates": [
          84.0504,
          21.9135
        ]
      }
    },
    {
      "type": "Feature",
      "properties": {
        "name": "Hindon Airport / Hindon Air Force Station",
        "city": "Ghaziabad",
        "type": "small_airport",
        "iata": "HDO",
        "gps": "VIDX"
      },
      "geometry": {
        "type": "Point",
        "coordinates": [
          77.358902,
          28.707701
        ]
      }
    },
    {
      "type": "Feature",
      "properties": {
        "name": "Jagdalpur Airport",
        "city": "Jagdalpur",
        "type": "small_airport",
        "iata": "JGB",
        "gps": "VEJR"
      },
      "geometry": {
        "type": "Point",
        "coordinates": [
          82.036797,
          19.074301
        ]
      }
    },
    {
      "type": "Feature",
      "properties": {
        "name": "Jalgaon Airport",
        "city": "Jalgaon",
        "type": "small_airport",
        "iata": "JLG",
        "gps": "VAJL"
      },
      "geometry": {
        "type": "Point",
        "coordinates": [
          75.627492,
          20.962678
        ]
      }
    },
    {
      "type": "Feature",
      "properties": {
        "name": "Pakyong Airport",
        "city": "Pakyong",
        "type": "small_airport",
        "iata": "PYG",
        "gps": "VEPY"
      },
      "geometry": {
        "type": "Point",
        "coordinates": [
          88.587196,
          27.2313
        ]
      }
    },
    {
      "type": "Feature",
      "properties": {
        "name": "Giridih Airport",
        "city": "",
        "type": "small_airport",
        "iata": "",
        "gps": "VE41"
      },
      "geometry": {
        "type": "Point",
        "coordinates": [
          86.28980255126953,
          24.201900482177734
        ]
      }
    },
    {
      "type": "Feature",
      "properties": {
        "name": "Purnea Airport",
        "city": "",
        "type": "small_airport",
        "iata": "",
        "gps": "VEPU"
      },
      "geometry": {
        "type": "Point",
        "coordinates": [
          87.41000366210938,
          25.759599685668945
        ]
      }
    },
    {
      "type": "Feature",
      "properties": {
        "name": "Bhilai Airport",
        "city": "",
        "type": "small_airport",
        "iata": "",
        "gps": "VA1E"
      },
      "geometry": {
        "type": "Point",
        "coordinates": [
          81.37950134277344,
          21.294200897216797
        ]
      }
    },
    {
      "type": "Feature",
      "properties": {
        "name": "Narnaul Airport",
        "city": "",
        "type": "small_airport",
        "iata": "",
        "gps": "VINL"
      },
      "geometry": {
        "type": "Point",
        "coordinates": [
          76.205002,
          28.077101
        ]
      }
    },
    {
      "type": "Feature",
      "properties": {
        "name": "Chakulia Airport",
        "city": "",
        "type": "small_airport",
        "iata": "",
        "gps": "VECK"
      },
      "geometry": {
        "type": "Point",
        "coordinates": [
          86.705219,
          22.463625
        ]
      }
    },
    {
      "type": "Feature",
      "properties": {
        "name": "Dhulia Airport",
        "city": "",
        "type": "small_airport",
        "iata": "",
        "gps": ""
      },
      "geometry": {
        "type": "Point",
        "coordinates": [
          74.737099,
          20.9265
        ]
      }
    },
    {
      "type": "Feature",
      "properties": {
        "name": "Nuagaon Airport",
        "city": "",
        "type": "small_airport",
        "iata": "",
        "gps": "VE36"
      },
      "geometry": {
        "type": "Point",
        "coordinates": [
          83.4480972290039,
          20.511699676513672
        ]
      }
    },
    {
      "type": "Feature",
      "properties": {
        "name": "Patiala Airport",
        "city": "",
        "type": "small_airport",
        "iata": "",
        "gps": "VIPL"
      },
      "geometry": {
        "type": "Point",
        "coordinates": [
          76.364502,
          30.3148
        ]
      }
    },
    {
      "type": "Feature",
      "properties": {
        "name": "Uttarlai Airport",
        "city": "",
        "type": "small_airport",
        "iata": "",
        "gps": "VIUT"
      },
      "geometry": {
        "type": "Point",
        "coordinates": [
          71.4823,
          25.813
        ]
      }
    },
    {
      "type": "Feature",
      "properties": {
        "name": "Burnpur Airport",
        "city": "",
        "type": "small_airport",
        "iata": "",
        "gps": "VE23"
      },
      "geometry": {
        "type": "Point",
        "coordinates": [
          86.97550201416016,
          23.631500244140625
        ]
      }
    },
    {
      "type": "Feature",
      "properties": {
        "name": "Aamby Valley Airport",
        "city": "Aamby Valley City",
        "type": "small_airport",
        "iata": "",
        "gps": "VAAV"
      },
      "geometry": {
        "type": "Point",
        "coordinates": [
          73.377583,
          18.609617
        ]
      }
    },
    {
      "type": "Feature",
      "properties": {
        "name": "Amreli Airport",
        "city": "Amreli",
        "type": "small_airport",
        "iata": "",
        "gps": ""
      },
      "geometry": {
        "type": "Point",
        "coordinates": [
          71.226309,
          21.621416
        ]
      }
    },
    {
      "type": "Feature",
      "properties": {
        "name": "Balurghat Airport",
        "city": "Balurghat",
        "type": "small_airport",
        "iata": "RGH",
        "gps": "VEBG"
      },
      "geometry": {
        "type": "Point",
        "coordinates": [
          88.795601,
          25.2617
        ]
      }
    },
    {
      "type": "Feature",
      "properties": {
        "name": "Barrackpore Air Force Station",
        "city": "Barrackpore",
        "type": "small_airport",
        "iata": "",
        "gps": "VEPI"
      },
      "geometry": {
        "type": "Point",
        "coordinates": [
          88.3591995239,
          22.7810001373
        ]
      }
    },
    {
      "type": "Feature",
      "properties": {
        "name": "Barbil Tonto Airstrip",
        "city": "Bhusugaon",
        "type": "small_airport",
        "iata": "",
        "gps": "VEBL"
      },
      "geometry": {
        "type": "Point",
        "coordinates": [
          85.373468,
          22.045829
        ]
      }
    },
    {
      "type": "Feature",
      "properties": {
        "name": "INS Kohassa",
        "city": "Diglipur",
        "type": "small_airport",
        "iata": "",
        "gps": "VODX"
      },
      "geometry": {
        "type": "Point",
        "coordinates": [
          93.049731,
          13.236316
        ]
      }
    },
    {
      "type": "Feature",
      "properties": {
        "name": "Sido Kanhu Airport",
        "city": "Dumka",
        "type": "small_airport",
        "iata": "",
        "gps": ""
      },
      "geometry": {
        "type": "Point",
        "coordinates": [
          87.269989,
          24.231185
        ]
      }
    },
    {
      "type": "Feature",
      "properties": {
        "name": "Durgapur Steel Plant Airport",
        "city": "Durgapur",
        "type": "small_airport",
        "iata": "",
        "gps": ""
      },
      "geometry": {
        "type": "Point",
        "coordinates": [
          87.339787,
          23.58331
        ]
      }
    },
    {
      "type": "Feature",
      "properties": {
        "name": "Pinjore Airfield and Flying Club",
        "city": "Gannan",
        "type": "small_airport",
        "iata": "",
        "gps": "VI71"
      },
      "geometry": {
        "type": "Point",
        "coordinates": [
          76.883652,
          30.82457
        ]
      }
    },
    {
      "type": "Feature",
      "properties": {
        "name": "Gauchar Airstrip",
        "city": "Gauchar",
        "type": "small_airport",
        "iata": "",
        "gps": ""
      },
      "geometry": {
        "type": "Point",
        "coordinates": [
          79.161665,
          30.284585
        ]
      }
    },
    {
      "type": "Feature",
      "properties": {
        "name": "Nadirgul Airport",
        "city": "Hyderabad",
        "type": "small_airport",
        "iata": "",
        "gps": ""
      },
      "geometry": {
        "type": "Point",
        "coordinates": [
          78.561004,
          17.306142
        ]
      }
    },
    {
      "type": "Feature",
      "properties": {
        "name": "IIT Kanpur Airport",
        "city": "Kanpur",
        "type": "small_airport",
        "iata": "",
        "gps": ""
      },
      "geometry": {
        "type": "Point",
        "coordinates": [
          80.232904,
          26.520399
        ]
      }
    },
    {
      "type": "Feature",
      "properties": {
        "name": "Khowai Airport",
        "city": "Khowai",
        "type": "small_airport",
        "iata": "IXN",
        "gps": "VEKW"
      },
      "geometry": {
        "type": "Point",
        "coordinates": [
          91.603897,
          24.061899
        ]
      }
    },
    {
      "type": "Feature",
      "properties": {
        "name": "Behala Airport",
        "city": "Kolkata",
        "type": "small_airport",
        "iata": "",
        "gps": "VEBA"
      },
      "geometry": {
        "type": "Point",
        "coordinates": [
          88.293427,
          22.50423
        ]
      }
    },
    {
      "type": "Feature",
      "properties": {
        "name": "Malda Airport",
        "city": "Malda",
        "type": "small_airport",
        "iata": "LDA",
        "gps": "VEMH"
      },
      "geometry": {
        "type": "Point",
        "coordinates": [
          88.126917,
          25.01018
        ]
      }
    },
    {
      "type": "Feature",
      "properties": {
        "name": "Kamalpur Airport",
        "city": "Manik Bhandar",
        "type": "small_airport",
        "iata": "IXQ",
        "gps": "VEKM"
      },
      "geometry": {
        "type": "Point",
        "coordinates": [
          91.810769,
          24.134325
        ]
      }
    },
    {
      "type": "Feature",
      "properties": {
        "name": "Mehsana Airport",
        "city": "Mehsana",
        "type": "small_airport",
        "iata": "",
        "gps": ""
      },
      "geometry": {
        "type": "Point",
        "coordinates": [
          72.37399,
          23.60118
        ]
      }
    },
    {
      "type": "Feature",
      "properties": {
        "name": "Nagarjuna Sagar Airport",
        "city": "Nagarjuna Sagar",
        "type": "small_airport",
        "iata": "",
        "gps": "VONS"
      },
      "geometry": {
        "type": "Point",
        "coordinates": [
          79.316504,
          16.541574
        ]
      }
    },
    {
      "type": "Feature",
      "properties": {
        "name": "Naliya Air Force Station",
        "city": "Naliya",
        "type": "small_airport",
        "iata": "",
        "gps": "VANY"
      },
      "geometry": {
        "type": "Point",
        "coordinates": [
          68.891296,
          23.2223
        ]
      }
    },
    {
      "type": "Feature",
      "properties": {
        "name": "Karnal Airport",
        "city": "Niawal",
        "type": "small_airport",
        "iata": "",
        "gps": "VI40"
      },
      "geometry": {
        "type": "Point",
        "coordinates": [
          77.037438,
          29.714663
        ]
      }
    },
    {
      "type": "Feature",
      "properties": {
        "name": "Thoise Airport",
        "city": "Nubra",
        "type": "small_airport",
        "iata": "",
        "gps": "VI57"
      },
      "geometry": {
        "type": "Point",
        "coordinates": [
          77.375801,
          34.652599
        ]
      }
    },
    {
      "type": "Feature",
      "properties": {
        "name": "Pasighat Airport",
        "city": "Pasighat",
        "type": "small_airport",
        "iata": "IXT",
        "gps": "VEPG"
      },
      "geometry": {
        "type": "Point",
        "coordinates": [
          95.336952,
          28.064786
        ]
      }
    },
    {
      "type": "Feature",
      "properties": {
        "name": "Surichua Air Base",
        "city": "Rampurhat",
        "type": "small_airport",
        "iata": "",
        "gps": ""
      },
      "geometry": {
        "type": "Point",
        "coordinates": [
          87.701722,
          24.18824
        ]
      }
    },
    {
      "type": "Feature",
      "properties": {
        "name": "Korba Airport",
        "city": "Rumgara",
        "type": "small_airport",
        "iata": "",
        "gps": ""
      },
      "geometry": {
        "type": "Point",
        "coordinates": [
          82.7194444444,
          22.414166666699998
        ]
      }
    },
    {
      "type": "Feature",
      "properties": {
        "name": "Sarsawa Air Force Station",
        "city": "Sherpur Naqeebpur",
        "type": "small_airport",
        "iata": "SWN",
        "gps": "VISP"
      },
      "geometry": {
        "type": "Point",
        "coordinates": [
          77.42456,
          29.994303
        ]
      }
    },
    {
      "type": "Feature",
      "properties": {
        "name": "Coimbatore Air Force Station",
        "city": "Sulur",
        "type": "small_airport",
        "iata": "",
        "gps": "VOSX"
      },
      "geometry": {
        "type": "Point",
        "coordinates": [
          77.159698,
          11.0136
        ]
      }
    },
    {
      "type": "Feature",
      "properties": {
        "name": "Fursatganj Airport",
        "city": "Tarauna",
        "type": "small_airport",
        "iata": "",
        "gps": "VERB"
      },
      "geometry": {
        "type": "Point",
        "coordinates": [
          81.380501,
          26.248501
        ]
      }
    },
    {
      "type": "Feature",
      "properties": {
        "name": "Tezu Airport",
        "city": "Tezu",
        "type": "small_airport",
        "iata": "TEI",
        "gps": "VETJ"
      },
      "geometry": {
        "type": "Point",
        "coordinates": [
          96.1343994141,
          27.9412002563
        ]
      }
    },
    {
      "type": "Feature",
      "properties": {
        "name": "Thanjavur Air Force Station",
        "city": "Thanjavur",
        "type": "small_airport",
        "iata": "TJV",
        "gps": "VOTJ"
      },
      "geometry": {
        "type": "Point",
        "coordinates": [
          79.109457,
          10.723835
        ]
      }
    },
    {
      "type": "Feature",
      "properties": {
        "name": "Jindal Vijaynagar Airport",
        "city": "Toranagallu",
        "type": "small_airport",
        "iata": "VDY",
        "gps": "VOJV"
      },
      "geometry": {
        "type": "Point",
        "coordinates": [
          76.63303,
          15.175921
        ]
      }
    },
    {
      "type": "Feature",
      "properties": {
        "name": "Yelahanka Air Force Station",
        "city": "Yelahanka",
        "type": "small_airport",
        "iata": "",
        "gps": "VOYK"
      },
      "geometry": {
        "type": "Point",
        "coordinates": [
          77.60600280761719,
          13.135499954223633
        ]
      }
    },
    {
      "type": "Feature",
      "properties": {
        "name": "HeliTaxii Heliport",
        "city": "Bengaluru",
        "type": "heliport",
        "iata": "",
        "gps": ""
      },
      "geometry": {
        "type": "Point",
        "coordinates": [
          77.668188,
          12.84305
        ]
      }
    },
    {
      "type": "Feature",
      "properties": {
        "name": "Ganga Helipad",
        "city": "Coimbatore",
        "type": "heliport",
        "iata": "",
        "gps": ""
      },
      "geometry": {
        "type": "Point",
        "coordinates": [
          76.95603,
          11.09489
        ]
      }
    },
    {
      "type": "Feature",
      "properties": {
        "name": "Gadag Government Estate Heliport",
        "city": "Gadag",
        "type": "heliport",
        "iata": "",
        "gps": ""
      },
      "geometry": {
        "type": "Point",
        "coordinates": [
          75.611361,
          15.419947
        ]
      }
    },
    {
      "type": "Feature",
      "properties": {
        "name": "Gangtok Helipad",
        "city": "Gangtok",
        "type": "heliport",
        "iata": "",
        "gps": ""
      },
      "geometry": {
        "type": "Point",
        "coordinates": [
          88.614156,
          27.355736
        ]
      }
    },
    {
      "type": "Feature",
      "properties": {
        "name": "ICAT Helipad",
        "city": "Gurugram",
        "type": "heliport",
        "iata": "",
        "gps": ""
      },
      "geometry": {
        "type": "Point",
        "coordinates": [
          76.87712,
          28.36925
        ]
      }
    },
    {
      "type": "Feature",
      "properties": {
        "name": "Lebong Helipad",
        "city": "Lebong",
        "type": "heliport",
        "iata": "",
        "gps": ""
      },
      "geometry": {
        "type": "Point",
        "coordinates": [
          88.2777333333,
          27.0590833333
        ]
      }
    },
    {
      "type": "Feature",
      "properties": {
        "name": "Kuttikayam Helipad",
        "city": "Mampara",
        "type": "heliport",
        "iata": "",
        "gps": ""
      },
      "geometry": {
        "type": "Point",
        "coordinates": [
          76.86489,
          9.3539
        ]
      }
    },
    {
      "type": "Feature",
      "properties": {
        "name": "Chandimandir Helipad",
        "city": "Panchkula",
        "type": "heliport",
        "iata": "",
        "gps": ""
      },
      "geometry": {
        "type": "Point",
        "coordinates": [
          76.88139,
          30.73473
        ]
      }
    },
    {
      "type": "Feature",
      "properties": {
        "name": "Pilani Helipad",
        "city": "Pilani",
        "type": "heliport",
        "iata": "",
        "gps": ""
      },
      "geometry": {
        "type": "Point",
        "coordinates": [
          75.591104,
          28.349677
        ]
      }
    },
    {
      "type": "Feature",
      "properties": {
        "name": "EON Helipad",
        "city": "Pune",
        "type": "heliport",
        "iata": "",
        "gps": ""
      },
      "geometry": {
        "type": "Point",
        "coordinates": [
          73.96432,
          18.545464
        ]
      }
    },
    {
      "type": "Feature",
      "properties": {
        "name": "RPSCL Private Helipad",
        "city": "Shahjahanpur",
        "type": "heliport",
        "iata": "",
        "gps": ""
      },
      "geometry": {
        "type": "Point",
        "coordinates": [
          79.92742,
          27.83428
        ]
      }
    },
    {
      "type": "Feature",
      "properties": {
        "name": "Kuttanellur Heliport",
        "city": "Thrissur",
        "type": "heliport",
        "iata": "",
        "gps": ""
      },
      "geometry": {
        "type": "Point",
        "coordinates": [
          76.254586,
          10.501753
        ]
      }
    },
    {
      "type": "Feature",
      "properties": {
        "name": "Varanasi Police Line Helipad",
        "city": "Varanasi",
        "type": "heliport",
        "iata": "",
        "gps": ""
      },
      "geometry": {
        "type": "Point",
        "coordinates": [
          82.98752,
          25.34819
        ]
      }
    },
    {
      "type": "Feature",
      "properties": {
        "name": "Halwara International Airport",
        "city": "Halwara",
        "type": "large_airport",
        "iata": "HWR",
        "gps": "VIHX"
      },
      "geometry": {
        "type": "Point",
        "coordinates": [
          75.629799,
          30.748501
        ]
      }
    },
    {
      "type": "Feature",
      "properties": {
        "name": "Navi Mumbai International Airport",
        "city": "Navi Mumbai",
        "type": "large_airport",
        "iata": "NMI",
        "gps": "VANM"
      },
      "geometry": {
        "type": "Point",
        "coordinates": [
          73.065253,
          18.984597
        ]
      }
    },
    {
      "type": "Feature",
      "properties": {
        "name": "Noida International Airport",
        "city": "Gautam Buddha Nagar",
        "type": "large_airport",
        "iata": "DXN",
        "gps": "VIND"
      },
      "geometry": {
        "type": "Point",
        "coordinates": [
          77.611843,
          28.179868
        ]
      }
    },
    {
      "type": "Feature",
      "properties": {
        "name": "Dimapur Airport",
        "city": "Dimapur",
        "type": "medium_airport",
        "iata": "DMU",
        "gps": "VEMR"
      },
      "geometry": {
        "type": "Point",
        "coordinates": [
          93.77110290530001,
          25.883899688699998
        ]
      }
    },
    {
      "type": "Feature",
      "properties": {
        "name": "Lilabari North Lakhimpur Airport",
        "city": "Lilabari",
        "type": "medium_airport",
        "iata": "IXI",
        "gps": "VELR"
      },
      "geometry": {
        "type": "Point",
        "coordinates": [
          94.097266,
          27.295682
        ]
      }
    },
    {
      "type": "Feature",
      "properties": {
        "name": "Maa Mahamaya Airport",
        "city": "Ambikapur",
        "type": "medium_airport",
        "iata": "AHA",
        "gps": ""
      },
      "geometry": {
        "type": "Point",
        "coordinates": [
          83.19612,
          22.98753
        ]
      }
    },
    {
      "type": "Feature",
      "properties": {
        "name": "Bareilly Air Force Station",
        "city": "Bareilly",
        "type": "medium_airport",
        "iata": "BEK",
        "gps": "VIBY"
      },
      "geometry": {
        "type": "Point",
        "coordinates": [
          79.450798,
          28.4221
        ]
      }
    },
    {
      "type": "Feature",
      "properties": {
        "name": "Sindhudurg Airport",
        "city": "Chipi",
        "type": "medium_airport",
        "iata": "SDW",
        "gps": "VOSR"
      },
      "geometry": {
        "type": "Point",
        "coordinates": [
          73.529846,
          16.002552
        ]
      }
    },
    {
      "type": "Feature",
      "properties": {
        "name": "Maharshi Valmiki International Airport",
        "city": "Faizabad",
        "type": "medium_airport",
        "iata": "AYJ",
        "gps": "VEAY"
      },
      "geometry": {
        "type": "Point",
        "coordinates": [
          82.163664,
          26.747736
        ]
      }
    },
    {
      "type": "Feature",
      "properties": {
        "name": "Gorakhpur Airport",
        "city": "Gorakhpur",
        "type": "medium_airport",
        "iata": "GOP",
        "gps": "VEGK"
      },
      "geometry": {
        "type": "Point",
        "coordinates": [
          83.4496994019,
          26.739700317399997
        ]
      }
    },
    {
      "type": "Feature",
      "properties": {
        "name": "Itanagar Donyi Polo Hollongi Airport",
        "city": "Hollongi",
        "type": "medium_airport",
        "iata": "HGI",
        "gps": "VEHO"
      },
      "geometry": {
        "type": "Point",
        "coordinates": [
          93.638792,
          26.96683
        ]
      }
    },
    {
      "type": "Feature",
      "properties": {
        "name": "Hubballi Airport",
        "city": "Hubballi",
        "type": "medium_airport",
        "iata": "HBX",
        "gps": "VOHB"
      },
      "geometry": {
        "type": "Point",
        "coordinates": [
          75.082096,
          15.361084
        ]
      }
    },
    {
      "type": "Feature",
      "properties": {
        "name": "Murod Kond Airport",
        "city": "Latur",
        "type": "medium_airport",
        "iata": "LTU",
        "gps": "VALT"
      },
      "geometry": {
        "type": "Point",
        "coordinates": [
          76.464699,
          18.411501
        ]
      }
    },
    {
      "type": "Feature",
      "properties": {
        "name": "Nanded Airport",
        "city": "Nanded",
        "type": "medium_airport",
        "iata": "NDC",
        "gps": "VOND"
      },
      "geometry": {
        "type": "Point",
        "coordinates": [
          77.316704,
          19.1833
        ]
      }
    },
    {
      "type": "Feature",
      "properties": {
        "name": "Kurnool Airport",
        "city": "Orvakal",
        "type": "medium_airport",
        "iata": "KJB",
        "gps": "VOKU"
      },
      "geometry": {
        "type": "Point",
        "coordinates": [
          78.16923,
          15.716288
        ]
      }
    },
    {
      "type": "Feature",
      "properties": {
        "name": "Pantnagar Airport",
        "city": "Pantnagar",
        "type": "medium_airport",
        "iata": "PGH",
        "gps": "VIPT"
      },
      "geometry": {
        "type": "Point",
        "coordinates": [
          79.473701,
          29.0334
        ]
      }
    },
    {
      "type": "Feature",
      "properties": {
        "name": "Pondicherry Airport",
        "city": "Puducherry (Pondicherry)",
        "type": "medium_airport",
        "iata": "PNY",
        "gps": "VOPC"
      },
      "geometry": {
        "type": "Point",
        "coordinates": [
          79.812,
          11.968
        ]
      }
    },
    {
      "type": "Feature",
      "properties": {
        "name": "Along Airport",
        "city": "",
        "type": "medium_airport",
        "iata": "IXV",
        "gps": "VEAN"
      },
      "geometry": {
        "type": "Point",
        "coordinates": [
          94.802001953125,
          28.17530059814453
        ]
      }
    },
    {
      "type": "Feature",
      "properties": {
        "name": "Ratnagiri Airport",
        "city": "",
        "type": "medium_airport",
        "iata": "RTC",
        "gps": "VARG"
      },
      "geometry": {
        "type": "Point",
        "coordinates": [
          73.327797,
          17.013599
        ]
      }
    },
    {
      "type": "Feature",
      "properties": {
        "name": "Ludhiana Airport",
        "city": "",
        "type": "medium_airport",
        "iata": "LUH",
        "gps": "VILD"
      },
      "geometry": {
        "type": "Point",
        "coordinates": [
          75.95259857177734,
          30.854700088500977
        ]
      }
    },
    {
      "type": "Feature",
      "properties": {
        "name": "Akola Airport",
        "city": "Akola",
        "type": "medium_airport",
        "iata": "AKD",
        "gps": "VAAK"
      },
      "geometry": {
        "type": "Point",
        "coordinates": [
          77.056883,
          20.698931
        ]
      }
    },
    {
      "type": "Feature",
      "properties": {
        "name": "Nal Airport",
        "city": "Bikaner",
        "type": "medium_airport",
        "iata": "BKB",
        "gps": "VIBK"
      },
      "geometry": {
        "type": "Point",
        "coordinates": [
          73.207199,
          28.070601
        ]
      }
    },
    {
      "type": "Feature",
      "properties": {
        "name": "Campbell Bay Airport / INS Baaz",
        "city": "Campbell Bay",
        "type": "medium_airport",
        "iata": "",
        "gps": "VOBX"
      },
      "geometry": {
        "type": "Point",
        "coordinates": [
          93.922798,
          7.01304
        ]
      }
    },
    {
      "type": "Feature",
      "properties": {
        "name": "Daman Airport",
        "city": "Daman",
        "type": "medium_airport",
        "iata": "NMB",
        "gps": "VADN"
      },
      "geometry": {
        "type": "Point",
        "coordinates": [
          72.843201,
          20.434401
        ]
      }
    },
    {
      "type": "Feature",
      "properties": {
        "name": "Car Nicobar Air Force Base",
        "city": "IAF Camp",
        "type": "medium_airport",
        "iata": "CBD",
        "gps": "VOCX"
      },
      "geometry": {
        "type": "Point",
        "coordinates": [
          92.819273,
          9.153056
        ]
      }
    },
    {
      "type": "Feature",
      "properties": {
        "name": "Hashimara Air Force Station",
        "city": "Jalpaiguri",
        "type": "medium_airport",
        "iata": "",
        "gps": "VEHX"
      },
      "geometry": {
        "type": "Point",
        "coordinates": [
          89.369102,
          26.698299
        ]
      }
    },
    {
      "type": "Feature",
      "properties": {
        "name": "Kushinagar International Airport",
        "city": "Kushinagar",
        "type": "medium_airport",
        "iata": "KBK",
        "gps": "VEKI"
      },
      "geometry": {
        "type": "Point",
        "coordinates": [
          83.889214,
          26.776534
        ]
      }
    },
    {
      "type": "Feature",
      "properties": {
        "name": "Muzaffarpur Airport",
        "city": "Muzaffarpur",
        "type": "medium_airport",
        "iata": "MZU",
        "gps": "VEMZ"
      },
      "geometry": {
        "type": "Point",
        "coordinates": [
          85.313698,
          26.119101
        ]
      }
    },
    {
      "type": "Feature",
      "properties": {
        "name": "Salem Airport",
        "city": "Salem",
        "type": "medium_airport",
        "iata": "SXV",
        "gps": "VOSM"
      },
      "geometry": {
        "type": "Point",
        "coordinates": [
          78.06559753418,
          11.78330039978
        ]
      }
    },
    {
      "type": "Feature",
      "properties": {
        "name": "Rashtrakavi Kuvempu Airport",
        "city": "Shimoga",
        "type": "medium_airport",
        "iata": "RQY",
        "gps": "VOSH"
      },
      "geometry": {
        "type": "Point",
        "coordinates": [
          75.618868,
          13.858024
        ]
      }
    },
    {
      "type": "Feature",
      "properties": {
        "name": "Solapur Airport",
        "city": "Solapur",
        "type": "medium_airport",
        "iata": "SSE",
        "gps": "VASL"
      },
      "geometry": {
        "type": "Point",
        "coordinates": [
          75.93479919430001,
          17.6280002594
        ]
      }
    },
    {
      "type": "Feature",
      "properties": {
        "name": "Sant Gadge Baba Yavatmal Airport",
        "city": "Yavatmal",
        "type": "medium_airport",
        "iata": "",
        "gps": ""
      },
      "geometry": {
        "type": "Point",
        "coordinates": [
          78.216272,
          20.395781
        ]
      }
    },
    {
      "type": "Feature",
      "properties": {
        "name": "Ziro Airport",
        "city": "Ziro",
        "type": "medium_airport",
        "iata": "ZER",
        "gps": "VEZO"
      },
      "geometry": {
        "type": "Point",
        "coordinates": [
          93.828102,
          27.588301
        ]
      }
    },
    {
      "type": "Feature",
      "properties": {
        "name": "Guna Airport",
        "city": "",
        "type": "small_airport",
        "iata": "GUX",
        "gps": "VAGN"
      },
      "geometry": {
        "type": "Point",
        "coordinates": [
          77.347298,
          24.654699
        ]
      }
    },
    {
      "type": "Feature",
      "properties": {
        "name": "Satna Airport",
        "city": "",
        "type": "small_airport",
        "iata": "TNI",
        "gps": "VEST"
      },
      "geometry": {
        "type": "Point",
        "coordinates": [
          80.852927,
          24.56262
        ]
      }
    },
    {
      "type": "Feature",
      "properties": {
        "name": "Jakkur Aerodrome",
        "city": "Bengaluru",
        "type": "small_airport",
        "iata": "",
        "gps": "VOJK"
      },
      "geometry": {
        "type": "Point",
        "coordinates": [
          77.597645,
          13.07674
        ]
      }
    },
    {
      "type": "Feature",
      "properties": {
        "name": "Kanpur Civil Airport (Old)",
        "city": "Kanpur",
        "type": "small_airport",
        "iata": "",
        "gps": "VIKA"
      },
      "geometry": {
        "type": "Point",
        "coordinates": [
          80.365029,
          26.440857
        ]
      }
    },
    {
      "type": "Feature",
      "properties": {
        "name": "Adampur Airport",
        "city": "Adampur",
        "type": "small_airport",
        "iata": "AIP",
        "gps": "VIAX"
      },
      "geometry": {
        "type": "Point",
        "coordinates": [
          75.758797,
          31.4338
        ]
      }
    },
    {
      "type": "Feature",
      "properties": {
        "name": "Aligarh Airport",
        "city": "Aligarh",
        "type": "small_airport",
        "iata": "HRH",
        "gps": "VIAH"
      },
      "geometry": {
        "type": "Point",
        "coordinates": [
          78.145404,
          27.861437
        ]
      }
    },
    {
      "type": "Feature",
      "properties": {
        "name": "Utkela Airport",
        "city": "Bhawanipatna",
        "type": "small_airport",
        "iata": "UKE",
        "gps": ""
      },
      "geometry": {
        "type": "Point",
        "coordinates": [
          83.183333,
          20.097778
        ]
      }
    },
    {
      "type": "Feature",
      "properties": {
        "name": "Kalaburagi Airport",
        "city": "Kalaburagi",
        "type": "small_airport",
        "iata": "GBI",
        "gps": "VOGB"
      },
      "geometry": {
        "type": "Point",
        "coordinates": [
          76.965246,
          17.308154
        ]
      }
    },
    {
      "type": "Feature",
      "properties": {
        "name": "Shravasti Airport",
        "city": "Shravasti",
        "type": "small_airport",
        "iata": "VSV",
        "gps": "VISV"
      },
      "geometry": {
        "type": "Point",
        "coordinates": [
          82.032927,
          27.499732
        ]
      }
    },
    {
      "type": "Feature",
      "properties": {
        "name": "Sultanpur Airport",
        "city": "Sultanpur",
        "type": "small_airport",
        "iata": "",
        "gps": "VESL"
      },
      "geometry": {
        "type": "Point",
        "coordinates": [
          82.0425,
          26.2475
        ]
      }
    },
    {
      "type": "Feature",
      "properties": {
        "name": "Tuticorin Airport",
        "city": "Vagaikulam",
        "type": "small_airport",
        "iata": "TCR",
        "gps": "VOTK"
      },
      "geometry": {
        "type": "Point",
        "coordinates": [
          78.025803,
          8.724241
        ]
      }
    },
    {
      "type": "Feature",
      "properties": {
        "name": "Vijaynagar Advanced Landing Ground",
        "city": "",
        "type": "small_airport",
        "iata": "",
        "gps": "VE91"
      },
      "geometry": {
        "type": "Point",
        "coordinates": [
          97.00370025630001,
          27.1935997009
        ]
      }
    },
    {
      "type": "Feature",
      "properties": {
        "name": "Walong Advanced Landing Ground",
        "city": "",
        "type": "small_airport",
        "iata": "",
        "gps": ""
      },
      "geometry": {
        "type": "Point",
        "coordinates": [
          97.019660949707,
          28.12967300415
        ]
      }
    },
    {
      "type": "Feature",
      "properties": {
        "name": "Daltonganj Airport",
        "city": "",
        "type": "small_airport",
        "iata": "",
        "gps": "VE54"
      },
      "geometry": {
        "type": "Point",
        "coordinates": [
          84.09510040283203,
          24.01930046081543
        ]
      }
    },
    {
      "type": "Feature",
      "properties": {
        "name": "Raxaul Airport",
        "city": "",
        "type": "small_airport",
        "iata": "",
        "gps": "VERL"
      },
      "geometry": {
        "type": "Point",
        "coordinates": [
          84.833298,
          26.9667
        ]
      }
    },
    {
      "type": "Feature",
      "properties": {
        "name": "Raigarh Airport (JSPL)",
        "city": "",
        "type": "small_airport",
        "iata": "",
        "gps": ""
      },
      "geometry": {
        "type": "Point",
        "coordinates": [
          83.3502138889,
          21.9352805556
        ]
      }
    },
    {
      "type": "Feature",
      "properties": {
        "name": "Raichur Airport",
        "city": "",
        "type": "small_airport",
        "iata": "",
        "gps": "VORR"
      },
      "geometry": {
        "type": "Point",
        "coordinates": [
          77.360278,
          16.279722
        ]
      }
    },
    {
      "type": "Feature",
      "properties": {
        "name": "Chanda Airport",
        "city": "",
        "type": "small_airport",
        "iata": "",
        "gps": "VA1B"
      },
      "geometry": {
        "type": "Point",
        "coordinates": [
          79.22250366210938,
          19.994699478149414
        ]
      }
    },
    {
      "type": "Feature",
      "properties": {
        "name": "Karad Airport",
        "city": "",
        "type": "small_airport",
        "iata": "",
        "gps": "VA1M"
      },
      "geometry": {
        "type": "Point",
        "coordinates": [
          74.15809631347656,
          17.285900115966797
        ]
      }
    },
    {
      "type": "Feature",
      "properties": {
        "name": "Birlagram Airport",
        "city": "",
        "type": "small_airport",
        "iata": "",
        "gps": "VA1C"
      },
      "geometry": {
        "type": "Point",
        "coordinates": [
          75.42030334472656,
          23.4468994140625
        ]
      }
    },
    {
      "type": "Feature",
      "properties": {
        "name": "Sidhi Airport",
        "city": "",
        "type": "small_airport",
        "iata": "",
        "gps": "VA1F"
      },
      "geometry": {
        "type": "Point",
        "coordinates": [
          81.8147964477539,
          24.402299880981445
        ]
      }
    },
    {
      "type": "Feature",
      "properties": {
        "name": "Dhana Airport",
        "city": "",
        "type": "small_airport",
        "iata": "",
        "gps": "VA1J"
      },
      "geometry": {
        "type": "Point",
        "coordinates": [
          78.85579681396484,
          23.753599166870117
        ]
      }
    },
    {
      "type": "Feature",
      "properties": {
        "name": "Nimach Airport",
        "city": "",
        "type": "small_airport",
        "iata": "",
        "gps": "VA1N"
      },
      "geometry": {
        "type": "Point",
        "coordinates": [
          74.8677978515625,
          24.43079948425293
        ]
      }
    },
    {
      "type": "Feature",
      "properties": {
        "name": "Burhar Airport",
        "city": "",
        "type": "small_airport",
        "iata": "",
        "gps": "VA1O"
      },
      "geometry": {
        "type": "Point",
        "coordinates": [
          81.50370025634766,
          23.235200881958008
        ]
      }
    },
    {
      "type": "Feature",
      "properties": {
        "name": "Ratlam Airport",
        "city": "",
        "type": "small_airport",
        "iata": "",
        "gps": "VA2D"
      },
      "geometry": {
        "type": "Point",
        "coordinates": [
          75.02559661865234,
          23.381399154663086
        ]
      }
    },
    {
      "type": "Feature",
      "properties": {
        "name": "Thuniabhand Airport",
        "city": "",
        "type": "small_airport",
        "iata": "",
        "gps": "VE96"
      },
      "geometry": {
        "type": "Point",
        "coordinates": [
          78.91719818115234,
          22.00160026550293
        ]
      }
    },
    {
      "type": "Feature",
      "properties": {
        "name": "Band Tal Airport",
        "city": "",
        "type": "small_airport",
        "iata": "",
        "gps": "VI76"
      },
      "geometry": {
        "type": "Point",
        "coordinates": [
          78.26180267333984,
          26.000099182128906
        ]
      }
    },
    {
      "type": "Feature",
      "properties": {
        "name": "Khargon Govt. Airstrip",
        "city": "",
        "type": "small_airport",
        "iata": "",
        "gps": ""
      },
      "geometry": {
        "type": "Point",
        "coordinates": [
          75.55443763730001,
          21.810030194599996
        ]
      }
    },
    {
      "type": "Feature",
      "properties": {
        "name": "CHINDWARA AIRFIELD",
        "city": "",
        "type": "small_airport",
        "iata": "",
        "gps": ""
      },
      "geometry": {
        "type": "Point",
        "coordinates": [
          78.93,
          22
        ]
      }
    },
    {
      "type": "Feature",
      "properties": {
        "name": "Utkela Airport",
        "city": "",
        "type": "small_airport",
        "iata": "",
        "gps": "VEUK"
      },
      "geometry": {
        "type": "Point",
        "coordinates": [
          83.1838,
          20.097401
        ]
      }
    },
    {
      "type": "Feature",
      "properties": {
        "name": "Vedanta Lanjigarh Airstrip",
        "city": "",
        "type": "small_airport",
        "iata": "",
        "gps": ""
      },
      "geometry": {
        "type": "Point",
        "coordinates": [
          83.3936111111,
          19.7194444444
        ]
      }
    },
    {
      "type": "Feature",
      "properties": {
        "name": "Ondwa Airport",
        "city": "",
        "type": "small_airport",
        "iata": "",
        "gps": "VA1H"
      },
      "geometry": {
        "type": "Point",
        "coordinates": [
          74.61150360107422,
          25.14150047302246
        ]
      }
    },
    {
      "type": "Feature",
      "properties": {
        "name": "Phalodi Airport",
        "city": "",
        "type": "small_airport",
        "iata": "",
        "gps": "VA2A"
      },
      "geometry": {
        "type": "Point",
        "coordinates": [
          72.38899993896484,
          27.112899780273438
        ]
      }
    },
    {
      "type": "Feature",
      "properties": {
        "name": "Sirohi Airport",
        "city": "",
        "type": "small_airport",
        "iata": "",
        "gps": "VA38"
      },
      "geometry": {
        "type": "Point",
        "coordinates": [
          72.84590148925781,
          24.895099639892578
        ]
      }
    },
    {
      "type": "Feature",
      "properties": {
        "name": "Banswara Airport",
        "city": "",
        "type": "small_airport",
        "iata": "",
        "gps": ""
      },
      "geometry": {
        "type": "Point",
        "coordinates": [
          74.314048,
          23.589259
        ]
      }
    },
    {
      "type": "Feature",
      "properties": {
        "name": "Abu Road Airport",
        "city": "",
        "type": "small_airport",
        "iata": "",
        "gps": ""
      },
      "geometry": {
        "type": "Point",
        "coordinates": [
          72.781502,
          24.4942
        ]
      }
    },
    {
      "type": "Feature",
      "properties": {
        "name": "Suratgarh New Airport",
        "city": "",
        "type": "small_airport",
        "iata": "",
        "gps": "VI43"
      },
      "geometry": {
        "type": "Point",
        "coordinates": [
          73.90390014648438,
          29.387800216674805
        ]
      }
    },
    {
      "type": "Feature",
      "properties": {
        "name": "Jhunjhunu Airport",
        "city": "",
        "type": "small_airport",
        "iata": "",
        "gps": "VI69"
      },
      "geometry": {
        "type": "Point",
        "coordinates": [
          75.37560272216797,
          28.106700897216797
        ]
      }
    },
    {
      "type": "Feature",
      "properties": {
        "name": "Pilani New Airport",
        "city": "",
        "type": "small_airport",
        "iata": "",
        "gps": "VI70"
      },
      "geometry": {
        "type": "Point",
        "coordinates": [
          75.59369659423828,
          28.348800659179688
        ]
      }
    },
    {
      "type": "Feature",
      "properties": {
        "name": "Nagaur Airport",
        "city": "",
        "type": "small_airport",
        "iata": "",
        "gps": "VI73"
      },
      "geometry": {
        "type": "Point",
        "coordinates": [
          73.7114028930664,
          27.20829963684082
        ]
      }
    },
    {
      "type": "Feature",
      "properties": {
        "name": "Phalodi Air Force Station",
        "city": "",
        "type": "small_airport",
        "iata": "",
        "gps": "VIPX"
      },
      "geometry": {
        "type": "Point",
        "coordinates": [
          72.212894,
          27.104866
        ]
      }
    },
    {
      "type": "Feature",
      "properties": {
        "name": "Hosur Airport",
        "city": "",
        "type": "small_airport",
        "iata": "",
        "gps": "VO95"
      },
      "geometry": {
        "type": "Point",
        "coordinates": [
          77.76719665527344,
          12.661299705505371
        ]
      }
    },
    {
      "type": "Feature",
      "properties": {
        "name": "Muirpur Airport",
        "city": "",
        "type": "small_airport",
        "iata": "",
        "gps": "VA1D"
      },
      "geometry": {
        "type": "Point",
        "coordinates": [
          83.04060363769531,
          24.125200271606445
        ]
      }
    },
    {
      "type": "Feature",
      "properties": {
        "name": "Jhansi Airport",
        "city": "",
        "type": "small_airport",
        "iata": "",
        "gps": "VIJN"
      },
      "geometry": {
        "type": "Point",
        "coordinates": [
          78.558403,
          25.491199
        ]
      }
    },
    {
      "type": "Feature",
      "properties": {
        "name": "Akbarpur Mahamaya Rajkiya Airport",
        "city": "Akbarpur",
        "type": "small_airport",
        "iata": "",
        "gps": "VI90"
      },
      "geometry": {
        "type": "Point",
        "coordinates": [
          82.568199,
          26.447599
        ]
      }
    },
    {
      "type": "Feature",
      "properties": {
        "name": "Akli Airport",
        "city": "Akli",
        "type": "small_airport",
        "iata": "",
        "gps": ""
      },
      "geometry": {
        "type": "Point",
        "coordinates": [
          70.2943,
          25.8077
        ]
      }
    },
    {
      "type": "Feature",
      "properties": {
        "name": "Amla Airport",
        "city": "Amla",
        "type": "small_airport",
        "iata": "",
        "gps": "VA1L"
      },
      "geometry": {
        "type": "Point",
        "coordinates": [
          78.113602,
          21.926399
        ]
      }
    },
    {
      "type": "Feature",
      "properties": {
        "name": "Amravati (Belora) Airstrip",
        "city": "Amravati",
        "type": "small_airport",
        "iata": "",
        "gps": "VAAM"
      },
      "geometry": {
        "type": "Point",
        "coordinates": [
          77.717765,
          20.814608
        ]
      }
    },
    {
      "type": "Feature",
      "properties": {
        "name": "Savitri Jindal Airport",
        "city": "Angul",
        "type": "small_airport",
        "iata": "",
        "gps": ""
      },
      "geometry": {
        "type": "Point",
        "coordinates": [
          85.036669,
          20.910055
        ]
      }
    },
    {
      "type": "Feature",
      "properties": {
        "name": "INS Rajali / Arakkonam Naval Air Station",
        "city": "Arakkonam",
        "type": "small_airport",
        "iata": "",
        "gps": "VOAR"
      },
      "geometry": {
        "type": "Point",
        "coordinates": [
          79.6912,
          13.0712
        ]
      }
    },
    {
      "type": "Feature",
      "properties": {
        "name": "Awantipura Air Force Station",
        "city": "Awantipura",
        "type": "small_airport",
        "iata": "",
        "gps": "VIAW"
      },
      "geometry": {
        "type": "Point",
        "coordinates": [
          74.9757,
          33.876598
        ]
      }
    },
    {
      "type": "Feature",
      "properties": {
        "name": "Azamgarh Airport",
        "city": "Azamgarh",
        "type": "small_airport",
        "iata": "AZH",
        "gps": "VEAH"
      },
      "geometry": {
        "type": "Point",
        "coordinates": [
          83.118333,
          26.153333
        ]
      }
    },
    {
      "type": "Feature",
      "properties": {
        "name": "Dinjan Airfield",
        "city": "Baghbari Gaon",
        "type": "small_airport",
        "iata": "",
        "gps": ""
      },
      "geometry": {
        "type": "Point",
        "coordinates": [
          95.2682,
          27.53606
        ]
      }
    },
    {
      "type": "Feature",
      "properties": {
        "name": "Birwa Airstrip",
        "city": "Baihar",
        "type": "small_airport",
        "iata": "",
        "gps": ""
      },
      "geometry": {
        "type": "Point",
        "coordinates": [
          80.595531,
          22.092639
        ]
      }
    },
    {
      "type": "Feature",
      "properties": {
        "name": "Cuttack Airport / Charbatia Air Force Station",
        "city": "Bandalo",
        "type": "small_airport",
        "iata": "",
        "gps": "VE62"
      },
      "geometry": {
        "type": "Point",
        "coordinates": [
          85.886299,
          20.549601
        ]
      }
    },
    {
      "type": "Feature",
      "properties": {
        "name": "Saifai Airport",
        "city": "Barauli Khurd",
        "type": "small_airport",
        "iata": "",
        "gps": "VI00"
      },
      "geometry": {
        "type": "Point",
        "coordinates": [
          79.06277,
          26.9202
        ]
      }
    },
    {
      "type": "Feature",
      "properties": {
        "name": "Baldota Koppal Aerodrome",
        "city": "Basapur",
        "type": "small_airport",
        "iata": "",
        "gps": "VOKP"
      },
      "geometry": {
        "type": "Point",
        "coordinates": [
          76.219411,
          15.359481
        ]
      }
    },
    {
      "type": "Feature",
      "properties": {
        "name": "Ulao Aerodrome",
        "city": "Begusarai",
        "type": "small_airport",
        "iata": "",
        "gps": ""
      },
      "geometry": {
        "type": "Point",
        "coordinates": [
          86.08819,
          25.42788
        ]
      }
    },
    {
      "type": "Feature",
      "properties": {
        "name": "Benti Airstrip",
        "city": "Benti",
        "type": "small_airport",
        "iata": "",
        "gps": ""
      },
      "geometry": {
        "type": "Point",
        "coordinates": [
          81.49592,
          25.67292
        ]
      }
    },
    {
      "type": "Feature",
      "properties": {
        "name": "Berhampur Rangeilunda Airport",
        "city": "Berhampur (Brahmapur)",
        "type": "small_airport",
        "iata": "",
        "gps": "VEBM"
      },
      "geometry": {
        "type": "Point",
        "coordinates": [
          84.876944,
          19.2975
        ]
      }
    },
    {
      "type": "Feature",
      "properties": {
        "name": "Beas Airport",
        "city": "Bhaini",
        "type": "small_airport",
        "iata": "",
        "gps": "VI88"
      },
      "geometry": {
        "type": "Point",
        "coordinates": [
          75.341301,
          31.559999
        ]
      }
    },
    {
      "type": "Feature",
      "properties": {
        "name": "Andhau Airfield",
        "city": "Biraich",
        "type": "small_airport",
        "iata": "",
        "gps": ""
      },
      "geometry": {
        "type": "Point",
        "coordinates": [
          83.56064,
          25.6155
        ]
      }
    },
    {
      "type": "Feature",
      "properties": {
        "name": "Chabua Air Force Station",
        "city": "Chabua",
        "type": "small_airport",
        "iata": "",
        "gps": "VECA"
      },
      "geometry": {
        "type": "Point",
        "coordinates": [
          95.117699,
          27.4622
        ]
      }
    },
    {
      "type": "Feature",
      "properties": {
        "name": "Tambaram Air Force Station",
        "city": "Chennai",
        "type": "small_airport",
        "iata": "",
        "gps": "VOTX"
      },
      "geometry": {
        "type": "Point",
        "coordinates": [
          80.121902,
          12.9072
        ]
      }
    },
    {
      "type": "Feature",
      "properties": {
        "name": "Maa Ganga Airport Uttarkashi",
        "city": "Chinyalisour",
        "type": "small_airport",
        "iata": "",
        "gps": "VI82"
      },
      "geometry": {
        "type": "Point",
        "coordinates": [
          78.323164,
          30.582583
        ]
      }
    },
    {
      "type": "Feature",
      "properties": {
        "name": "Chitrakoot Airport",
        "city": "Chitrakoot",
        "type": "small_airport",
        "iata": "CWK",
        "gps": "VECT"
      },
      "geometry": {
        "type": "Point",
        "coordinates": [
          80.9358,
          25.167694
        ]
      }
    },
    {
      "type": "Feature",
      "properties": {
        "name": "Chushul Airstrip",
        "city": "Chushul",
        "type": "small_airport",
        "iata": "",
        "gps": ""
      },
      "geometry": {
        "type": "Point",
        "coordinates": [
          78.72214,
          33.55493
        ]
      }
    },
    {
      "type": "Feature",
      "properties": {
        "name": "Cooch Behar Airport",
        "city": "Cooch Behar",
        "type": "small_airport",
        "iata": "COH",
        "gps": "VECO"
      },
      "geometry": {
        "type": "Point",
        "coordinates": [
          89.467201,
          26.3305
        ]
      }
    },
    {
      "type": "Feature",
      "properties": {
        "name": "Tarpura Airfield",
        "city": "Dadiya",
        "type": "small_airport",
        "iata": "",
        "gps": ""
      },
      "geometry": {
        "type": "Point",
        "coordinates": [
          75.24086,
          27.729912
        ]
      }
    },
    {
      "type": "Feature",
      "properties": {
        "name": "Dahod Helipad",
        "city": "Dahod",
        "type": "small_airport",
        "iata": "",
        "gps": ""
      },
      "geometry": {
        "type": "Point",
        "coordinates": [
          74.243247,
          22.874296
        ]
      }
    },
    {
      "type": "Feature",
      "properties": {
        "name": "Daporijo Airport",
        "city": "Daporijo",
        "type": "small_airport",
        "iata": "DEP",
        "gps": "VEDZ"
      },
      "geometry": {
        "type": "Point",
        "coordinates": [
          94.22280120850002,
          27.985500335699996
        ]
      }
    },
    {
      "type": "Feature",
      "properties": {
        "name": "Deesa Airport",
        "city": "Deesa",
        "type": "small_airport",
        "iata": "",
        "gps": "VADS"
      },
      "geometry": {
        "type": "Point",
        "coordinates": [
          72.204399,
          24.2679
        ]
      }
    },
    {
      "type": "Feature",
      "properties": {
        "name": "Therubali Aerodrome",
        "city": "Deopur",
        "type": "small_airport",
        "iata": "",
        "gps": ""
      },
      "geometry": {
        "type": "Point",
        "coordinates": [
          83.43444,
          19.34564
        ]
      }
    },
    {
      "type": "Feature",
      "properties": {
        "name": "Mandla Airstrip",
        "city": "Dhenko",
        "type": "small_airport",
        "iata": "",
        "gps": ""
      },
      "geometry": {
        "type": "Point",
        "coordinates": [
          80.331195,
          22.500929
        ]
      }
    },
    {
      "type": "Feature",
      "properties": {
        "name": "Dunakonda Airport",
        "city": "Dunakonda",
        "type": "closed",
        "iata": "",
        "gps": ""
      },
      "geometry": {
        "type": "Point",
        "coordinates": [
          79.4882,
          15.8063
        ]
      }
    },
    {
      "type": "Feature",
      "properties": {
        "name": "Kendujhar Airport",
        "city": "Gopinathapur",
        "type": "small_airport",
        "iata": "",
        "gps": "VEKJ"
      },
      "geometry": {
        "type": "Point",
        "coordinates": [
          85.581667,
          21.696667
        ]
      }
    },
    {
      "type": "Feature",
      "properties": {
        "name": "Noamundi Airport",
        "city": "Itarbalijor",
        "type": "small_airport",
        "iata": "",
        "gps": ""
      },
      "geometry": {
        "type": "Point",
        "coordinates": [
          85.548889,
          22.192222
        ]
      }
    },
    {
      "type": "Feature",
      "properties": {
        "name": "Jeypore Airport",
        "city": "Jeypore",
        "type": "small_airport",
        "iata": "PYB",
        "gps": "VEJP"
      },
      "geometry": {
        "type": "Point",
        "coordinates": [
          82.552478,
          18.879549
        ]
      }
    },
    {
      "type": "Feature",
      "properties": {
        "name": "Sukinda Airstrip",
        "city": "Kaliapani",
        "type": "closed",
        "iata": "",
        "gps": ""
      },